[{"map_id":"40830","name":"18th","desc":"18th (Pink Line)","lines":["Pink"],"lat":41.857908,"lon":-87.669147},{"map_id":"41120","name":"35th-Bronzeville-IIT","desc":"35th-Bronzeville-IIT (Green Line)","lines":["G"],"lat":41.831677,"lon":-87.625826},{"map_id":"40120","name":"35th/Archer","desc":"35th/Archer (Orange Line)","lines":["Org"],"lat":41.829353,"lon":-87.680622},{"map_id":"41270","name":"43rd","desc":"43rd (Green Line)","lines":["G"],"lat":41.816462,"lon":-87.619021},{"map_id":"41080","name":"47th","desc":"47th (Green Line)","lines":["G"],"lat":41.809209,"lon":-87.618826},{"map_id":"41230","name":"47th","desc":"47th (Red Line)","lines":["Red"],"lat":41.810318,"lon":-87.63094},{"map_id":"40130","name":"51st","desc":"51st (Green Line)","lines":["G"],"lat":41.80209,"lon":-87.618487},{"map_id":"40580","name":"54th/Cermak","desc":"54th/Cermak (Pink Line)","lines":["Pink"],"lat":41.85177331,"lon":-87.75669201},{"map_id":"40910","name":"63rd","desc":"63rd (Red Line)","lines":["Red"],"lat":41.780536,"lon":-87.630952},{"map_id":"40990","name":"69th","desc":"69th (Red Line)","lines":["Red"],"lat":41.768367,"lon":-87.625724},{"map_id":"40240","name":"79th","desc":"79th (Red Line)","lines":["Red"],"lat":41.750419,"lon":-87.625112},{"map_id":"41430","name":"87th","desc":"87th (Red Line)","lines":["Red"],"lat":41.735372,"lon":-87.624717},{"map_id":"40450","name":"95th/Dan Ryan","desc":"95th/Dan Ryan (Red Line)","lines":["Red"],"lat":41.722377,"lon":-87.624342},{"map_id":"40680","name":"Adams/Wabash","desc":"Adams/Wabash (Brown, Green, Orange, Pink & Purple lines)","lines":["Brn","G","Org","P","Pink"],"lat":41.879507,"lon":-87.626037},{"map_id":"41420","name":"Addison","desc":"Addison (Red Line)","lines":["Red"],"lat":41.947428,"lon":-87.653626},{"map_id":"41440","name":"Addison","desc":"Addison (Brown Line)","lines":["Brn"],"lat":41.947028,"lon":-87.674642},{"map_id":"41240","name":"Addison","desc":"Addison (Blue Line)","lines":["Blue"],"lat":41.94738,"lon":-87.71906},{"map_id":"41200","name":"Argyle","desc":"Argyle (Red Line)","lines":["Red"],"lat":41.973453,"lon":-87.65853},{"map_id":"40660","name":"Armitage","desc":"Armitage (Brown & Purple lines)","lines":["Brn","P"],"lat":41.918217,"lon":-87.652644},{"map_id":"40170","name":"Ashland","desc":"Ashland (Green & Pink lines)","lines":["G","Pink"],"lat":41.885269,"lon":-87.666969},{"map_id":"41060","name":"Ashland","desc":"Ashland (Orange Line)","lines":["Org"],"lat":41.839234,"lon":-87.665317},{"map_id":"40290","name":"Ashland/63rd","desc":"Ashland/63rd (Green Line)","lines":["G"],"lat":41.77886,"lon":-87.663766},{"map_id":"40010","name":"Austin","desc":"Austin (Blue Line)","lines":["Blue"],"lat":41.870851,"lon":-87.776812},{"map_id":"41260","name":"Austin","desc":"Austin (Green Line)","lines":["G"],"lat":41.887293,"lon":-87.774135},{"map_id":"40060","name":"Belmont","desc":"Belmont (Blue Line)","lines":["Blue"],"lat":41.938132,"lon":-87.712359},{"map_id":"41320","name":"Belmont","desc":"Belmont (Red, Brown & Purple lines)","lines":["Brn","P","Red"],"lat":41.939751,"lon":-87.65338},{"map_id":"40340","name":"Berwyn","desc":"Berwyn (Red Line)","lines":["Red"],"lat":41.977984,"lon":-87.658668},{"map_id":"41380","name":"Bryn Mawr","desc":"Bryn Mawr (Red Line)","lines":["Red"],"lat":41.983504,"lon":-87.65884},{"map_id":"41360","name":"California","desc":"California (Green Line)","lines":["G"],"lat":41.88422,"lon":-87.696234},{"map_id":"40570","name":"California","desc":"California (Blue Line)","lines":["Blue"],"lat":41.921939,"lon":-87.69689},{"map_id":"40440","name":"California","desc":"California (Pink Line)","lines":["Pink"],"lat":41.854109,"lon":-87.694774},{"map_id":"40280","name":"Central","desc":"Central (Green Line)","lines":["G"],"lat":41.887389,"lon":-87.76565},{"map_id":"41250","name":"Central","desc":"Central (Purple Line)","lines":["P"],"lat":42.063987,"lon":-87.685617},{"map_id":"40780","name":"Central Park","desc":"Central Park (Pink Line)","lines":["Pink"],"lat":41.853839,"lon":-87.714842},{"map_id":"41000","name":"Cermak-Chinatown","desc":"Cermak-Chinatown (Red Line)","lines":["Red"],"lat":41.853206,"lon":-87.630968},{"map_id":"41690","name":"Cermak-McCormick Place","desc":"Cermak-McCormick Place (Green Line)","lines":["G"],"lat":41.853115,"lon":-87.626402},{"map_id":"41450","name":"Chicago","desc":"Chicago (Red Line)","lines":["Red"],"lat":41.896671,"lon":-87.628176},{"map_id":"40710","name":"Chicago","desc":"Chicago (Brown & Purple lines)","lines":["Brn","P"],"lat":41.89681,"lon":-87.635924},{"map_id":"41410","name":"Chicago","desc":"Chicago (Blue Line)","lines":["Blue"],"lat":41.896075,"lon":-87.655214},{"map_id":"40970","name":"Cicero","desc":"Cicero (Blue Line)","lines":["Blue"],"lat":41.871574,"lon":-87.745154},{"map_id":"40480","name":"Cicero","desc":"Cicero (Green Line)","lines":["G"],"lat":41.886519,"lon":-87.744698},{"map_id":"40420","name":"Cicero","desc":"Cicero (Pink Line)","lines":["Pink"],"lat":41.85182,"lon":-87.745336},{"map_id":"40630","name":"Clark/Division","desc":"Clark/Division (Red Line)","lines":["Red"],"lat":41.90392,"lon":-87.631412},{"map_id":"40380","name":"Clark/Lake","desc":"Clark/Lake (Blue, Brown, Green, Orange, Purple & Pink lines)","lines":["Blue","Brn","G","Org","P","Pink"],"lat":41.885737,"lon":-87.630886},{"map_id":"41160","name":"Clinton","desc":"Clinton (Green & Pink lines)","lines":["G","Pink"],"lat":41.885678,"lon":-87.641782},{"map_id":"40430","name":"Clinton","desc":"Clinton (Blue Line)","lines":["Blue"],"lat":41.875539,"lon":-87.640984},{"map_id":"41670","name":"Conservatory","desc":"Conservatory (Green Line)","lines":["G"],"lat":41.884904,"lon":-87.716523},{"map_id":"40720","name":"Cottage Grove","desc":"Cottage Grove (Green Line)","lines":["G"],"lat":41.780309,"lon":-87.605857},{"map_id":"40230","name":"Cumberland","desc":"Cumberland (Blue Line)","lines":["Blue"],"lat":41.984246,"lon":-87.838028},{"map_id":"40590","name":"Damen","desc":"Damen (Blue Line)","lines":["Blue"],"lat":41.909744,"lon":-87.677437},{"map_id":"41710","name":"Damen","desc":"Damen (Green Line)","lines":["G"],"lat":41.88497405,"lon":-87.67689149},{"map_id":"40210","name":"Damen","desc":"Damen (Pink Line)","lines":["Pink"],"lat":41.854517,"lon":-87.675975},{"map_id":"40090","name":"Damen","desc":"Damen (Brown Line)","lines":["Brn"],"lat":41.966286,"lon":-87.678639},{"map_id":"40050","name":"Davis","desc":"Davis (Purple Line)","lines":["P"],"lat":42.04771,"lon":-87.683543},{"map_id":"40690","name":"Dempster","desc":"Dempster (Purple Line)","lines":["P"],"lat":42.041655,"lon":-87.681602},{"map_id":"40140","name":"Dempster-Skokie","desc":"Dempster-Skokie  (Yellow Line)","lines":["Y"],"lat":42.038951,"lon":-87.751919},{"map_id":"40530","name":"Diversey","desc":"Diversey (Brown & Purple lines)","lines":["Brn","P"],"lat":41.932732,"lon":-87.653131},{"map_id":"40320","name":"Division","desc":"Division (Blue Line)","lines":["Blue"],"lat":41.903355,"lon":-87.666496},{"map_id":"40390","name":"Forest Park","desc":"Forest Park (Blue Line)","lines":["Blue"],"lat":41.874257,"lon":-87.817318},{"map_id":"40520","name":"Foster","desc":"Foster (Purple Line)","lines":["P"],"lat":42.05416,"lon":-87.68356},{"map_id":"40870","name":"Francisco","desc":"Francisco (Brown Line)","lines":["Brn"],"lat":41.966046,"lon":-87.701644},{"map_id":"41220","name":"Fullerton","desc":"Fullerton (Red, Brown & Purple lines)","lines":["Brn","P","Red"],"lat":41.925051,"lon":-87.652866},{"map_id":"41170","name":"Garfield","desc":"Garfield (Red Line)","lines":["Red"],"lat":41.79542,"lon":-87.631157},{"map_id":"40510","name":"Garfield","desc":"Garfield (Green Line)","lines":["G"],"lat":41.795172,"lon":-87.618327},{"map_id":"40330","name":"Grand","desc":"Grand (Red Line)","lines":["Red"],"lat":41.891665,"lon":-87.628021},{"map_id":"40490","name":"Grand","desc":"Grand (Blue Line)","lines":["Blue"],"lat":41.891189,"lon":-87.647578},{"map_id":"40760","name":"Granville","desc":"Granville (Red Line)","lines":["Red"],"lat":41.993664,"lon":-87.659202},{"map_id":"40940","name":"Halsted","desc":"Halsted (Green Line)","lines":["G"],"lat":41.778943,"lon":-87.644244},{"map_id":"41130","name":"Halsted","desc":"Halsted (Orange Line)","lines":["Org"],"lat":41.84678,"lon":-87.648088},{"map_id":"40980","name":"Harlem","desc":"Harlem (Blue Line - Forest Park Branch)","lines":["Blue"],"lat":41.87349,"lon":-87.806961},{"map_id":"40750","name":"Harlem","desc":"Harlem (Blue Line - O'Hare Branch)","lines":["Blue"],"lat":41.98227,"lon":-87.8089},{"map_id":"40020","name":"Harlem/Lake","desc":"Harlem/Lake (Green Line)","lines":["G"],"lat":41.886848,"lon":-87.803176},{"map_id":"40850","name":"Harold Washington Library-State/Van Buren","desc":"Harold Washington Library-State/Van Buren (Brown, Orange, Purple & Pink lines)","lines":["Brn","Org","P","Pink"],"lat":41.876862,"lon":-87.628196},{"map_id":"41490","name":"Harrison","desc":"Harrison (Red Line)","lines":["Red"],"lat":41.874039,"lon":-87.627479},{"map_id":"40900","name":"Howard","desc":"Howard (Red, Purple & Yellow lines)","lines":["P","Red","Y"],"lat":42.019063,"lon":-87.672892},{"map_id":"40810","name":"Illinois Medical District","desc":"Illinois Medical District (Blue Line)","lines":["Blue"],"lat":41.875706,"lon":-87.673932},{"map_id":"40300","name":"Indiana","desc":"Indiana (Green Line)","lines":["G"],"lat":41.821732,"lon":-87.621371},{"map_id":"40550","name":"Irving Park","desc":"Irving Park (Blue Line)","lines":["Blue"],"lat":41.952925,"lon":-87.729229},{"map_id":"41460","name":"Irving Park","desc":"Irving Park (Brown Line)","lines":["Brn"],"lat":41.954521,"lon":-87.674868},{"map_id":"40070","name":"Jackson","desc":"Jackson (Blue Line)","lines":["Blue"],"lat":41.878183,"lon":-87.629296},{"map_id":"40560","name":"Jackson","desc":"Jackson (Red Line)","lines":["Red"],"lat":41.878153,"lon":-87.627596},{"map_id":"41190","name":"Jarvis","desc":"Jarvis (Red Line)","lines":["Red"],"lat":42.015876,"lon":-87.669092},{"map_id":"41280","name":"Jefferson Park","desc":"Jefferson Park (Blue Line)","lines":["Blue"],"lat":41.970634,"lon":-87.760892},{"map_id":"41150","name":"Kedzie","desc":"Kedzie (Orange Line)","lines":["Org"],"lat":41.804236,"lon":-87.704406},{"map_id":"41070","name":"Kedzie","desc":"Kedzie (Green Line)","lines":["G"],"lat":41.884321,"lon":-87.706155},{"map_id":"41040","name":"Kedzie","desc":"Kedzie (Pink Line)","lines":["Pink"],"lat":41.853964,"lon":-87.705408},{"map_id":"41180","name":"Kedzie","desc":"Kedzie (Brown Line)","lines":["Brn"],"lat":41.965996,"lon":-87.708821},{"map_id":"40250","name":"Kedzie-Homan","desc":"Kedzie-Homan (Blue Line)","lines":["Blue"],"lat":41.874341,"lon":-87.70604},{"map_id":"41290","name":"Kimball","desc":"Kimball (Brown Line)","lines":["Brn"],"lat":41.967901,"lon":-87.713065},{"map_id":"41140","name":"King Drive","desc":"King Drive (Green Line)","lines":["G"],"lat":41.78013,"lon":-87.615546},{"map_id":"40600","name":"Kostner","desc":"Kostner (Pink Line)","lines":["Pink"],"lat":41.853751,"lon":-87.733258},{"map_id":"41660","name":"Lake","desc":"Lake (Red Line)","lines":["Red"],"lat":41.884809,"lon":-87.627813},{"map_id":"40700","name":"Laramie","desc":"Laramie (Green Line)","lines":["G"],"lat":41.887163,"lon":-87.754986},{"map_id":"41340","name":"LaSalle","desc":"LaSalle (Blue Line)","lines":["Blue"],"lat":41.875568,"lon":-87.631722},{"map_id":"40160","name":"LaSalle/Van Buren","desc":"LaSalle/Van Buren (Brown, Orange, Purple & Pink lines)","lines":["Brn","Org","P","Pink"],"lat":41.8768,"lon":-87.631739},{"map_id":"40770","name":"Lawrence","desc":"Lawrence (Red Line)","lines":["Red"],"lat":41.969139,"lon":-87.658493},{"map_id":"41050","name":"Linden","desc":"Linden (Purple Line)","lines":["P"],"lat":42.073153,"lon":-87.69073},{"map_id":"41020","name":"Logan Square","desc":"Logan Square (Blue Line)","lines":["Blue"],"lat":41.929728,"lon":-87.708541},{"map_id":"41300","name":"Loyola","desc":"Loyola (Red Line)","lines":["Red"],"lat":42.001073,"lon":-87.661061},{"map_id":"40270","name":"Main","desc":"Main (Purple Line)","lines":["P"],"lat":42.033456,"lon":-87.679538},{"map_id":"40460","name":"Merchandise Mart","desc":"Merchandise Mart (Brown & Purple lines)","lines":["Brn","P"],"lat":41.888969,"lon":-87.633924},{"map_id":"40930","name":"Midway","desc":"Midway (Orange Line)","lines":["Org"],"lat":41.78661,"lon":-87.737875},{"map_id":"41090","name":"Monroe","desc":"Monroe (Red Line)","lines":["Red"],"lat":41.880745,"lon":-87.627696},{"map_id":"40790","name":"Monroe","desc":"Monroe (Blue Line)","lines":["Blue"],"lat":41.880703,"lon":-87.629378},{"map_id":"41330","name":"Montrose","desc":"Montrose (Blue Line)","lines":["Blue"],"lat":41.961539,"lon":-87.743574},{"map_id":"41500","name":"Montrose","desc":"Montrose (Brown Line)","lines":["Brn"],"lat":41.961756,"lon":-87.675047},{"map_id":"41510","name":"Morgan","desc":"Morgan (Green & Pink lines)","lines":["G","Pink"],"lat":41.885586,"lon":-87.652193},{"map_id":"40100","name":"Morse","desc":"Morse (Red Line)","lines":["Red"],"lat":42.008362,"lon":-87.665909},{"map_id":"40650","name":"North/Clybourn","desc":"North/Clybourn (Red Line)","lines":["Red"],"lat":41.910655,"lon":-87.649177},{"map_id":"40400","name":"Noyes","desc":"Noyes (Purple Line)","lines":["P"],"lat":42.058282,"lon":-87.683337},{"map_id":"40890","name":"O'Hare","desc":"O'Hare (Blue Line)","lines":["Blue"],"lat":41.97766526,"lon":-87.90422307},{"map_id":"41350","name":"Oak Park","desc":"Oak Park (Green Line)","lines":["G"],"lat":41.886988,"lon":-87.793783},{"map_id":"40180","name":"Oak Park","desc":"Oak Park (Blue Line)","lines":["Blue"],"lat":41.872108,"lon":-87.791602},{"map_id":"41680","name":"Oakton-Skokie","desc":"Oakton-Skokie (Yellow Line)","lines":["Y"],"lat":42.02624348,"lon":-87.74722084},{"map_id":"41310","name":"Paulina","desc":"Paulina (Brown Line)","lines":["Brn"],"lat":41.943623,"lon":-87.670907},{"map_id":"41030","name":"Polk","desc":"Polk (Pink Line)","lines":["Pink"],"lat":41.871551,"lon":-87.66953},{"map_id":"40030","name":"Pulaski","desc":"Pulaski (Green Line)","lines":["G"],"lat":41.885412,"lon":-87.725404},{"map_id":"40920","name":"Pulaski","desc":"Pulaski (Blue Line)","lines":["Blue"],"lat":41.873797,"lon":-87.725663},{"map_id":"40150","name":"Pulaski","desc":"Pulaski (Pink Line)","lines":["Pink"],"lat":41.853732,"lon":-87.724311},{"map_id":"40960","name":"Pulaski","desc":"Pulaski (Orange Line)","lines":["Org"],"lat":41.799756,"lon":-87.724493},{"map_id":"40040","name":"Quincy/Wells","desc":"Quincy/Wells (Brown, Orange, Purple & Pink lines)","lines":["Brn","Org","P","Pink"],"lat":41.878723,"lon":-87.63374},{"map_id":"40470","name":"Racine","desc":"Racine (Blue Line)","lines":["Blue"],"lat":41.87592,"lon":-87.659458},{"map_id":"40610","name":"Ridgeland","desc":"Ridgeland (Green Line)","lines":["G"],"lat":41.887159,"lon":-87.783661},{"map_id":"41010","name":"Rockwell","desc":"Rockwell (Brown Line)","lines":["Brn"],"lat":41.966115,"lon":-87.6941},{"map_id":"41400","name":"Roosevelt","desc":"Roosevelt (Red, Orange & Green lines)","lines":["G","Org","Red"],"lat":41.867368,"lon":-87.627402},{"map_id":"40820","name":"Rosemont","desc":"Rosemont (Blue Line)","lines":["Blue"],"lat":41.983507,"lon":-87.859388},{"map_id":"40800","name":"Sedgwick","desc":"Sedgwick (Brown & Purple lines)","lines":["Brn","P"],"lat":41.910409,"lon":-87.639302},{"map_id":"40080","name":"Sheridan","desc":"Sheridan (Red Line)","lines":["Red"],"lat":41.953775,"lon":-87.654929},{"map_id":"40840","name":"South Boulevard","desc":"South Boulevard (Purple Line)","lines":["P"],"lat":42.027612,"lon":-87.678329},{"map_id":"40360","name":"Southport","desc":"Southport (Brown Line)","lines":["Brn"],"lat":41.943744,"lon":-87.663619},{"map_id":"40190","name":"Sox-35th","desc":"Sox-35th (Red Line)","lines":["Red"],"lat":41.831191,"lon":-87.630636},{"map_id":"40260","name":"State/Lake","desc":"State/Lake (Brown, Green, Orange, Pink & Purple lines)","lines":["Brn","G","Org","P","Pink"],"lat":41.88574,"lon":-87.627835},{"map_id":"40880","name":"Thorndale","desc":"Thorndale (Red Line)","lines":["Red"],"lat":41.990259,"lon":-87.659076},{"map_id":"40350","name":"UIC-Halsted","desc":"UIC-Halsted (Blue Line)","lines":["Blue"],"lat":41.875474,"lon":-87.649707},{"map_id":"40370","name":"Washington","desc":"Washington (Blue Line)","lines":["Blue"],"lat":41.883164,"lon":-87.62944},{"map_id":"41700","name":"Washington/Wabash","desc":"Washington/Wabash (Brown, Green, Orange, Purple & Pink lines)","lines":["Brn","G","Org","P","Pink"],"lat":41.88322,"lon":-87.626189},{"map_id":"40730","name":"Washington/Wells","desc":"Washington/Wells (Brown, Orange, Purple & Pink lines)","lines":["Brn","Org","P","Pink"],"lat":41.882695,"lon":-87.63378},{"map_id":"41210","name":"Wellington","desc":"Wellington (Brown & Purple lines)","lines":["Brn","P"],"lat":41.936033,"lon":-87.653266},{"map_id":"41480","name":"Western","desc":"Western (Brown Line)","lines":["Brn"],"lat":41.966163,"lon":-87.688502},{"map_id":"40670","name":"Western","desc":"Western (Blue Line - O'Hare Branch)","lines":["Blue"],"lat":41.916157,"lon":-87.687364},{"map_id":"40220","name":"Western","desc":"Western (Blue Line - Forest Park Branch)","lines":["Blue"],"lat":41.875478,"lon":-87.688436},{"map_id":"40310","name":"Western","desc":"Western (Orange Line)","lines":["Org"],"lat":41.804546,"lon":-87.684019},{"map_id":"40740","name":"Western","desc":"Western (Pink Line)","lines":["Pink"],"lat":41.854225,"lon":-87.685129},{"map_id":"40540","name":"Wilson","desc":"Wilson (Red & Purple lines)","lines":["P","Red"],"lat":41.964273,"lon":-87.657588}]